idpoi,title,layer,type,subcategoria,address,postcode,phone,web,description,image_uri,lat,lon,mp3_uri,lang
9081,Centro comercial Camelias,compras,26,Centro comercial,"Plaza de América, 1",36211,986208311,www.cameliascc.com,El Centro comercial cuenta con diferentes tiendas y espacios de ocio.,http://www.turismodevigo.org/sites/turismodevigo/files/com051.jpg,42.2214002239484,-8.73275663238464,,es-ES
9082,Centro comercial Gran Vía de Vigo,compras,26,Centro comercial,"Rua Miradoiro, 2",36210,986447500,www.granviadevigo.com,El Centro comercial cuenta con diferentes tiendas y espacios de ocio.,http://www.turismodevigo.org/sites/turismodevigo/files/com052.jpg,42.2207649203632,-8.72409382098312,,es-ES
9083,Centro comercial Travesía de Vigo,compras,26,Centro comercial,"Travesía de Vigo, 2",36207,986277908,www.cctravesia.com,El Centro comercial cuenta con diferentes tiendas y espacios de ocio.,http://www.turismodevigo.org/sites/turismodevigo/files/com053.jpg,42.24343570461,-8.6957058929659,,es-ES
9080,Centro Príncipe,compras,26,Centro comercial abierto,"Príncipe, 51",36202,986113337,www.centroprincipe.com,Se trata de un centro comercial abierto situado en la céntrica calle Príncipe de Vigo.,http://www.turismodevigo.org/sites/turismodevigo/files/com050.jpg,42.2361723410513,-8.72091305321786,,es-ES
9079,El Corte Inglés,compras,26,Centro comercial,"Urzáiz, 20",36201,986443130,www.elcorteingles.es,El Centro comercial cuenta con diferentes tiendas y espacios de ocio.,http://www.turismodevigo.org/sites/turismodevigo/files/com049.jpg,42.2320835919022,-8.71716028046126,,es-ES
9078,Plaza Elíptica,compras,26,Centro comercial,Plaza de Francisco Fernández Riego,36203,986485650,www.plazaeliptica.com,El Centro comercial cuenta con diferentes tiendas y espacios de ocio.,http://www.turismodevigo.org/sites/turismodevigo/files/com048.jpg,42.2314025791078,-8.72083763810832,,es-ES
9077,Centro comercial A Laxe,compras,26,Centro comercial,"Cánovas del Castillo, 1",36202,986443788,www.alaxecentrocomercial.com,El Centro comercial cuenta con diferentes tiendas y espacios de ocio.,http://www.turismodevigo.org/sites/turismodevigo/files/com047.jpg,42.2406308169613,-8.72786087185859,,es-ES
